{"type":"FeatureCollection","features":[{"type":"Feature","geometry":{"type":"Point","coordinates":[50.01219063711836,22.673130251877655]},"properties":{"name":"Instytut Inzynierii Technicznej","popupContent":""}},{"type":"Feature","geometry":{"type":"Point","coordinates":[50.0119310305093,22.67394389678122]},"properties":{"name":"Biblioteka","popupContent":""}},{"type":"Feature","geometry":{"type":"Point","coordinates":[50.012440266063955,22.67434366680546]},"properties":{"name":"Rektorat","popupContent":""}},{"type":"Feature","geometry":{"type":"Point","coordinates":[50.012832847061,22.673854574858098]},"properties":{"name":"Centrum Kultury Akademickiej(CKA)","popupContent":""}},{"type":"Feature","geometry":{"type":"Point","coordinates":[50.01272598185464,22.67327789996673]},"properties":{"name":"Budynek J1","popupContent":""}},{"type":"Feature","geometry":{"type":"Point","coordinates":[50.0125565690697,22.672422597311293]},"properties":{"name":"Budynek J2","popupContent":""}},{"type":"Feature","geometry":{"type":"Point","coordinates":[50.012425572221595,22.67146236651968]},"properties":{"name":"Budynek J3","popupContent":""}},{"type":"Feature","geometry":{"type":"Point","coordinates":[50.01225665470961,22.670617470748613]},"properties":{"name":"Budynek J4","popupContent":""}},{"type":"Feature","geometry":{"type":"Point","coordinates":[50.012282509469046,22.672543296670558]},"properties":{"name":"Instytut Ekonomii I Zarzadzania","popupContent":""}},{"type":"Feature","geometry":{"type":"Point","coordinates":[50.01211876242264,22.671481141986927]},"properties":{"name":"Instytut Ochrony Zdrowia","popupContent":""}},{"type":"Feature","geometry":{"type":"Point","coordinates":[50.01322656550647,22.672951892126942]},"properties":{"name":"Hala Sportowa","popupContent":""}},{"type":"Feature","geometry":{"type":"Point","coordinates":[50.013209502572565,22.672395724789087]},"properties":{"name":"Glowny Parking","popupContent":""}},{"type":"Feature","geometry":{"type":"Point","coordinates":[50.01272419914166,22.67536862700828]},"properties":{"name":"Akademik 'Viktoria'","popupContent":""}},{"type":"Feature","geometry":{"type":"Point","coordinates":[50.013116430281904,22.676758357339644]},"properties":{"name":"Budynek Geodezji i Kartografii","popupContent":""}},{"type":"Feature","geometry":{"type":"Point","coordinates":[50.01295096245084,22.676613518064602]},"properties":{"name":"Dzial Wspolpracy Miedzynarowej","popupContent":""}},{"type":"Feature","geometry":{"type":"Point","coordinates":[50.0124063716905,22.675519320377976]},"properties":{"name":"Boiska Sportowe","popupContent":""}},{"type":"Feature","geometry":{"type":"Point","coordinates":[50.01028020719261,22.6736515294705]},"properties":{"name":"Instytut Humanistyczny","popupContent":""}},{"type":"Feature","geometry":{"type":"Point","coordinates":[50.010114168045966,22.672598927881328]},"properties":{"name":"Instytut Stosunkow Miedzynarodowych","popupContent":""}},{"type":"Feature","geometry":{"type":"Point","coordinates":[50.00989050191139,22.672937118411237]},"properties":{"name":"Archiwum","popupContent":""}}]}